stop_id,stop_code,stop_name,stop_desc,stop_lat,stop_lon,zone_id,stop_url,location_type,parent_station,stop_timezone,wheelchair_boarding,level_id,platform_code
111,3,Americká,,50.75791549682617,15.033920288085938,1,,1,,,2,,
211,106,Kunratice Mšenská,,50.752410888671875,15.116671562194824,1,,1,,,2,,
311,71,Kynologické cvičiště,,50.757259368896484,15.10321044921875,1,,1,,,2,,
411,69,Kunratická sídliště,,50.76077651977539,15.095887184143066,1,,1,,,2,,
511,164,Východní,,50.760276794433594,15.091669082641602,1,,1,,,2,,
611,167,Ječná,,50.76249313354492,15.085653305053711,1,,1,,,2,,
811,161,Textilana,,50.765098571777344,15.068435668945312,1,,1,,,2,,
911,28,Fügnerova,,50.76551055908203,15.057374000549316,1,,1,,,1,,
1011,103,Babylon,,50.75944519042969,15.052877426147461,1,,1,,,2,,
1111,99,Nádraží,,50.76184844970703,15.046934127807617,1,,1,,,1,,
1211,185,Viadukt,,50.76485061645508,15.042624473571777,1,,1,,,1,,
1311,27,Františkov škola,,50.762149810791016,15.03576946258545,1,,1,,,2,,
1411,26,Františkov sídliště,,50.760318756103516,15.031692504882812,1,,1,,,2,,
1511,168,Domažlická,,50.756927490234375,15.031499862670898,1,,1,,,2,,
1611,181,Husitská,,50.75511169433594,15.028990745544434,1,,1,,,2,,
1711,68,Kubelíkova,,50.75056076049805,15.03243350982666,1,,1,,,2,,
1811,119,Banskobystrická,,50.7459716796875,15.035826683044434,1,,1,,,2,,
1911,221,Kavkazská,,50.74376678466797,15.037195205688477,1,,1,,,2,,
2011,11,České mládeže,,50.743446350097656,15.031303405761719,1,,1,,,2,,
2111,244,Průmyslová,,50.74298858642578,15.03594970703125,1,,1,,,2,,
2211,222,U Slunného potoka,,50.73625183105469,15.037126541137695,1,,1,,,2,,
2311,227,Prům. zóna Jih,,50.73395919799805,15.04165267944336,1,,1,,,2,,
2411,199,Liplastec,,50.73453140258789,15.034133911132812,1,,1,,,2,,
2511,238,OC Nisa kino,,50.74195098876953,15.045639038085938,1,,1,,,2,,
2611,203,OC Nisa,,50.74103927612305,15.050479888916016,1,,1,,,2,,
2711,59,Králův Háj,,50.76727294921875,15.082769393920898,1,,1,,,2,,
2811,179,U Vodárny,,50.76663589477539,15.079780578613281,1,,1,,,2,,
2911,23,Školní,,50.765743255615234,15.076519966125488,1,,1,,,2,,
3011,186,Vojtěšská,,50.765899658203125,15.069656372070312,1,,1,,,2,,
3111,159,Šaldovo náměstí,,50.76934814453125,15.060575485229492,1,,1,,,2,,
3211,123,Poliklinika,,50.76836395263672,15.064281463623047,1,,1,,,2,,
3311,213,Zimní stadion,,50.753990173339844,15.051339149475098,1,,1,,,2,,
3411,228,Ulice 28.října,,50.755531311035156,15.048686981201172,1,,1,,,2,,
3511,273,Herbenova,,50.754295349121094,15.04642391204834,1,,1,,,2,,
3611,214,Aréna,,50.75407028198242,15.050446510314941,1,,1,,,2,,
3711,194,Žitavská,,50.768646240234375,15.041951179504395,1,,1,,,2,,
3811,141,Růžodol I,,50.774192810058594,15.03963851928711,1,,1,,,2,,
3911,450,Úvozní,,50.77534484863281,15.03398323059082,1,,1,,,2,,
4011,249,Ostašovská,,50.773162841796875,15.024995803833008,1,,1,,,2,,
4111,250,Obchodní,,50.77533721923828,15.019938468933105,1,,1,,,2,,
4211,251,Prům. zóna sever,,50.779335021972656,15.018891334533691,1,,1,,,2,,
4311,7,Broumovská,,50.75984573364258,15.063509941101074,1,,1,,,2,,
4411,120,Plátenická,,50.76016616821289,15.066939353942871,1,,1,,,2,,
4511,100,Na Kačírku,,50.75917434692383,15.070049285888672,1,,1,,,2,,
4611,198,Ševčíkova,,50.757450103759766,15.070695877075195,1,,1,,,2,,
4711,114,Pekárny,,50.746910095214844,15.077462196350098,1,,1,,,2,,
4811,192,Zelené Údolí,,50.74855422973633,15.072988510131836,1,,1,,,2,,
4911,63,Krejčího,,50.7520637512207,15.069450378417969,1,,1,,,2,,
5011,14,Dobiášova,,50.75189971923828,15.06394100189209,1,,1,,,2,,
5111,174,Horní Kopečná,,50.75492858886719,15.063570022583008,1,,1,,,2,,
5211,172,U Močálu,,50.75697708129883,15.061127662658691,1,,1,,,2,,
5311,57,Košická,,50.76026916503906,15.055558204650879,1,,1,,,2,,
5411,5,Nám.Dr.E.Beneše,,50.77009582519531,15.058417320251465,1,,1,,,2,,
5511,88,Malé náměstí,,50.77085876464844,15.05274486541748,1,,1,,,2,,
5611,178,U Věže,,50.77263259887695,15.047181129455566,1,,1,,,2,,
5711,21,Dožínková,,50.77410125732422,15.044248580932617,1,,1,,,2,,
5811,124,Stračí,,50.78068923950195,15.039861679077148,1,,1,,,2,,
5911,112,Pavlovice stadion,,50.782554626464844,15.041885375976562,1,,1,,,2,,
6011,113,Pavlovice škola,,50.784034729003906,15.045291900634766,1,,1,,,2,,
6111,75,Pavlovice Letná,,50.785491943359375,15.049996376037598,1,,1,,,2,,
6211,140,Růžodol Mlýn,,50.78125762939453,15.029293060302734,1,,1,,,2,,
6311,156,Stráž n. Nis. Oblouková,,50.78516387939453,15.024892807006836,1,,1,,,2,,
6411,153,Stráž n. Nis. elektrárna,,50.78972244262695,15.021227836608887,1,,1,,,2,,
6511,152,Stráž nad Nisou,,50.79061508178711,15.025712013244629,1,,1,,,2,,
6611,51,Karlinky,,50.759315490722656,15.02180290222168,1,,1,,,2,,
6711,146,Slévárna,,50.76176452636719,15.020930290222168,1,,1,,,2,,
6811,58,Kovošrot,,50.762733459472656,15.017461776733398,1,,1,,,2,,
6911,109,Ostašov škola,,50.76506805419922,15.010519027709961,1,,1,,,2,,
7011,108,Ostašov,,50.76823043823242,15.012187957763672,1,,1,,,2,,
7111,53,Karlovská,,50.77155303955078,14.998403549194336,1,,1,,,2,,
7211,13,Českolipská,,50.774688720703125,14.992940902709961,1,,1,,,2,,
7311,52,Karlov,,50.77700424194336,14.987703323364258,1,,1,,,2,,
7411,87,Machnín statek,,50.78366470336914,14.990602493286133,1,,1,,,2,,
7511,85,Machnín,,50.789730072021484,14.991601943969727,1,,1,,,2,,
7611,86,Machnín žel. zast.,,50.78776550292969,14.985286712646484,1,,1,,,2,,
7811,66,Kryštofovo Údolí lom,,50.77900314331055,14.950942993164062,1,,1,,,2,,
7911,65,Kryštofovo Údolí,,50.77764892578125,14.943092346191406,1,,1,,,2,,
8011,67,Kryšt. Údolí ob. úřad,,50.773643493652344,14.932425498962402,1,,1,,,2,,
8111,104,Novina,,50.7635383605957,14.940191268920898,1,,1,,,2,,
8311,207,Univerzitní koleje,,50.76833724975586,15.087369918823242,1,,1,,,2,,
8411,176,U Terstu,,50.766929626464844,15.089337348937988,1,,1,,,2,,
8511,48,Vlčí vrch,,50.76747512817383,15.095407485961914,1,,1,,,2,,
8611,32,Harcov kostel,,50.76587677001953,15.099695205688477,1,,1,,,2,,
8711,73,Vřesová,,50.76203155517578,15.104994773864746,1,,1,,,2,,
8811,50,Kadlická,,50.76148223876953,15.11025619506836,1,,1,,,2,,
8911,33,Harcov Myslivna,,50.758270263671875,15.116867065429688,1,,1,,,2,,
9311,149,Hostina obrů,,50.77099609375,15.059417724609375,1,,1,,,2,,
9411,162,Tržní náměstí,,50.774444580078125,15.061909675598145,1,,1,,,2,,
9511,195,Žižkovo náměstí,,50.78038024902344,15.068645477294922,1,,1,,,2,,
9611,4,Baltská,,50.78199768066406,15.070646286010742,1,,1,,,2,,
9711,38,U Trianglu,,50.78606414794922,15.07309341430664,1,,1,,,2,,
9811,175,U Pramenů,,50.78880310058594,15.07560920715332,1,,1,,,2,,
9911,177,U Transformátoru,,50.79112243652344,15.074872970581055,1,,1,,,2,,
10011,6,Blanická,,50.79484939575195,15.07225513458252,1,,1,,,2,,
10111,9,Kateřinky křižovatka,,50.796913146972656,15.089681625366211,1,,1,,,2,,
10211,56,Škola Kateřinky,,50.79795837402344,15.097393989562988,1,,1,,,2,,
10311,165,Kateřinky učiliště,,50.796939849853516,15.102267265319824,1,,1,,,2,,
10411,24,Rudolfov elektrárna,,50.79478454589844,15.109046936035156,1,,1,,,2,,
10511,35,Rudolfov has.zbroj.,,50.7910041809082,15.112640380859375,1,,1,,,2,,
10611,136,Rudolfov,,50.78624725341797,15.111668586730957,1,,1,,,2,,
10711,41,Husova,,50.77171325683594,15.071121215820312,1,,1,,,2,,
10811,158,Technická univerzita,,50.77253723144531,15.076513290405273,1,,1,,,2,,
10911,8,Březová alej,,50.77425765991211,15.085345268249512,1,,1,,,2,,
11011,77,Lesní správa,,50.77360534667969,15.09190559387207,1,,1,,,2,,
11111,190,Zahrádky,,50.776187896728516,15.09936237335205,1,,1,,,2,,
11211,34,Harcov Střelnice,,50.77781677246094,15.103082656860352,1,,1,,,2,,
11311,90,Melantrichova,,50.75733184814453,15.059197425842285,1,,1,,,2,,
11411,10,Čechova,,50.755062103271484,15.055192947387695,1,,1,,,2,,
11511,97,Mostecká,,50.751731872558594,15.05648136138916,1,,1,,,2,,
11611,134,Rochlice,,50.74702453613281,15.062702178955078,1,,1,,,2,,
11711,82,Kamenická,,50.74337387084961,15.059961318969727,1,,1,,,2,,
11811,202,Doubská,,50.74332809448242,15.054994583129883,1,,1,,,2,,
11911,17,Doubí mlýn,,50.739845275878906,15.05616569519043,1,,1,,,2,,
12011,18,Doubí pošta,,50.734806060791016,15.057019233703613,1,,1,,,2,,
12111,20,Doubí obilná,,50.730255126953125,15.054689407348633,1,,1,,,2,,
12211,92,Pilínkov křižovatka,,50.7254753112793,15.046780586242676,1,,1,,,2,,
12311,116,Pilínkov,,50.724849700927734,15.040711402893066,1,,1,,,2,,
12411,93,Minkovice kovárna,,50.72388458251953,15.046588897705078,1,,1,,,2,,
12511,94,Minkovice statek,,50.71913528442383,15.055312156677246,1,,1,,,2,,
12611,196,Minkovice žel. přejezd,,50.71355438232422,15.054645538330078,1,,1,,,2,,
12711,160,Šimonovice,,50.707881927490234,15.054100036621094,1,,1,,,2,,
12911,19,Doubí sídliště,,50.73713684082031,15.053574562072754,1,,1,,,2,,
13011,89,Mařanova,,50.73713302612305,15.057083129882812,1,,1,,,2,,
13111,184,Vesec U Střediska,,50.73720169067383,15.062409400939941,1,,1,,,2,,
13211,145,Vesec samoobsluha,,50.73816680908203,15.064226150512695,1,,1,,,2,,
13311,80,Jeřmanická,,50.741233825683594,15.068872451782227,1,,1,,,2,,
13411,96,Na Srázu,,50.74380111694336,15.065963745117188,1,,1,,,2,,
13511,84,Slovanská,,50.745635986328125,15.065452575683594,1,,1,,,2,,
13711,148,Sokolská,,50.77202224731445,15.056098937988281,1,,1,,,2,,
13811,166,U Dvora,,50.77486801147461,15.055110931396484,1,,1,,,2,,
13911,16,Dopravní hřiště,,50.77668762207031,15.053604125976562,1,,1,,,2,,
14011,189,Vrchlického,,50.780174255371094,15.053975105285645,1,,1,,,2,,
14111,39,Hrdinů,,50.78229522705078,15.050493240356445,1,,1,,,2,,
14211,74,Letná,,50.78516387939453,15.051986694335938,1,,1,,,2,,
14311,111,Pavlovice křižovatka,,50.78935623168945,15.044763565063477,1,,1,,,2,,
14411,107,Obzor,,50.792972564697266,15.056674003601074,1,,1,,,2,,
14511,46,Janův most,,50.79533004760742,15.059975624084473,1,,1,,,2,,
14611,115,Nad Pianovkou,,50.79579162597656,15.064878463745117,1,,1,,,2,,
14711,122,Pod Záložnou,,50.7984733581543,15.070987701416016,1,,1,,,2,,
14811,55,Kateřinky Zlatá ulička,,50.798614501953125,15.077333450317383,1,,1,,,2,,
17011,54,Kateřinky les. správa,,50.797271728515625,15.08505916595459,1,,1,,,2,,
18311,139,Ruprechtická,,50.77775573730469,15.061694145202637,1,,1,,,2,,
18411,169,U Jelena,,50.780433654785156,15.0635986328125,1,,1,,,2,,
18511,143,Rychtářská,,50.782066345214844,15.064830780029297,1,,1,,,2,,
18611,163,U Beránka,,50.784263610839844,15.065231323242188,1,,1,,,2,,
18711,36,Hlávkova,,50.7859992980957,15.063358306884766,1,,1,,,2,,
18811,138,Ruprechtice síd.,,50.787269592285156,15.058015823364258,1,,1,,,2,,
18911,224,Na Pískovně,,50.78883743286133,15.050549507141113,1,,1,,,2,,
19011,230,Jiráskova,,50.786834716796875,15.049657821655273,1,,1,,,2,,
19111,208,Polní,,50.78569030761719,15.035184860229492,1,,1,,,2,,
19211,232,Zelná,,50.7725830078125,15.033021926879883,1,,1,,,2,,
19311,204,Globus,,50.77750015258789,15.031055450439453,1,,1,,,2,,
19411,132,U Radčického potoka,,50.79384231567383,15.041648864746094,1,,1,,,2,,
19511,135,Radčice rozcestí,,50.800811767578125,15.055571556091309,1,,1,,,2,,
19611,47,Jedlová,,50.802955627441406,15.060093879699707,1,,1,,,2,,
19711,131,Radčice,,50.80525207519531,15.0641450881958,1,,1,,,2,,
19811,170,U Lípy,,50.799827575683594,15.041481018066406,1,,1,,,2,,
19911,137,Ruprechtice nám.,,50.78938674926758,15.067190170288086,1,,1,,,2,,
20011,61,Kr. Studánka kovárna,,50.80012512207031,15.037338256835938,1,,1,,,2,,
20111,62,Kr. Studánka Švestková,,50.80299377441406,15.036746978759766,1,,1,,,2,,
20211,60,Krásná Studánka,,50.809967041015625,15.035652160644531,1,,1,,,2,,
20311,101,Na Vršku,,50.79582595825195,15.028778076171875,1,,1,,,2,,
20411,154,Stráž n. Nis. Neumannova,,50.789039611816406,15.029157638549805,1,,1,,,2,,
20511,133,Stráž n. Nis. Kateřinská,,50.78974151611328,15.037067413330078,1,,1,,,2,,
20611,40,Hrubínova,,50.762115478515625,15.090578079223633,1,,1,,,2,,
20711,29,Garáže ČSAD,,50.74516296386719,15.051111221313477,1,,1,,,2,,
20811,144,Sametová,,50.75891876220703,15.073786735534668,1,,1,,,2,,
20911,171,U Lomu,,50.76287841796875,15.074695587158203,1,,1,,,2,,
21011,49,Jungmannova,,50.767818450927734,15.046905517578125,1,,1,,,2,,
21111,180,U Soudu,,50.76979064941406,15.048654556274414,1,,1,,,2,,
21311,81,Lidové sady - ZOO,,50.77817153930664,15.081315040588379,1,,1,,,1,,
21411,76,Riegrova,,50.77635955810547,15.079038619995117,1,,1,,,2,,
21511,193,Botanická zahrada,,50.77589797973633,15.075302124023438,1,,1,,,1,,
21611,98,Muzeum - Galerie Lázně,,50.77409362792969,15.068024635314941,1,,1,,,1,,
21711,129,Průmyslová škola,,50.77249526977539,15.064321517944336,1,,1,,,1,,
21811,110,Ulice 5.května,,50.77090835571289,15.062006950378418,1,,1,,,1,,
21911,306,NC Géčko,,50.776100158691406,15.029256820678711,1,,1,,,2,,
22011,142,Rybníček,,50.76494216918945,15.051992416381836,1,,1,,,1,,
22111,64,Krkonošská,,50.76099395751953,15.0421724319458,1,,1,,,1,,
22211,173,Staré Pekárny,,50.75735092163086,15.043349266052246,1,,1,,,1,,
22311,183,Vápenka,,50.755470275878906,15.041633605957031,1,,1,,,1,,
22411,45,Janův Důl,,50.75292205810547,15.036803245544434,1,,1,,,1,,
22511,15,Dolní Hanychov,,50.74732208251953,15.028067588806152,1,,1,,,1,,
22611,12,Malodoubská,,50.74382019042969,15.025066375732422,1,,1,,,1,,
22711,30,Hanychov kostel,,50.741024017333984,15.020700454711914,1,,1,,,1,,
22811,151,Spáleniště,,50.739871978759766,15.017534255981445,1,,1,,,1,,
22911,37,Horní Hanychov,,50.7376594543457,15.012593269348145,1,,1,,,1,,
23011,95,Mlýnská,,50.76434326171875,15.062653541564941,1,,1,,,2,,
23111,105,Nová Ruda,,50.75612258911133,15.080297470092773,1,,1,,,1,,
23211,182,Sídliště Nové Vratislavice,,50.752925872802734,15.078661918640137,1,,1,,,1,,
23311,117,Pivovarská,,50.75031661987305,15.08358383178711,1,,1,,,1,,
23411,78,Lékárna,,50.74567413330078,15.085631370544434,1,,1,,,1,,
23511,187,Vratislavice n.N. kostel,,50.74297332763672,15.093027114868164,1,,1,,,1,,
23611,188,Vratislavice n.N. výhybna,,50.740909576416016,15.102214813232422,1,,1,,,1,,
23711,72,Vratislavická kyselka,,50.73481369018555,15.106364250183105,"1, 2",,1,,,2,,
23811,126,Za Tratí,,50.73178482055664,15.111927032470703,"1, 2",,1,,,2,,
23911,127,Proseč n.N. pošta,,50.72789764404297,15.116496086120605,"1, 2",,1,,,2,,
24011,128,U Šamotky,,50.72408676147461,15.126643180847168,"1, 2",,1,,,2,,
24111,125,Nový Svět,,50.72247314453125,15.132436752319336,"2, 1",,1,,,2,,
24211,191,Jablonec n.N. Zelené Údolí,,50.721473693847656,15.144439697265625,2,,1,,,2,,
24311,91,Měnírna,,50.72174072265625,15.147846221923828,2,,1,,,2,,
24511,197,Ježkova,,50.75249481201172,15.070109367370605,1,,1,,,2,,
24611,231,ZŠ Jabloňová,,50.782569885253906,15.043475151062012,1,,1,,,2,,
24711,121,Brandl,,50.72819900512695,15.15161418914795,2,,1,,,1,,
24811,102,Liberecká,,50.72566604614258,15.160749435424805,2,,1,,,2,,
24911,43,"Jablonec n.N., Tyršovy sady",,50.723426818847656,15.164185523986816,2,,1,,,1,,
25011,226,ZŠ Vrchlického,,50.782325744628906,15.058259010314941,1,,1,,,2,,
25311,253,Vratislavice n.N. škola,,50.743408203125,15.092924118041992,1,,1,,,2,,
25411,254,Vinařská,,50.745758056640625,15.081548690795898,1,,1,,,2,,
25511,255,Tulipánová,,50.738529205322266,15.084927558898926,1,,1,,,2,,
25611,256,Vyhlídková,,50.73701858520508,15.082859992980957,1,,1,,,2,,
25711,257,Vyhlídková křižovatka,,50.73419952392578,15.086274147033691,1,,1,,,2,,
25811,258,Sportovní Areál,,50.73939895629883,15.089128494262695,1,,1,,,2,,
25911,259,U Závor,,50.74026870727539,15.094376564025879,1,,1,,,2,,
26011,260,Tyršův Vrch,,50.73685073852539,15.095483779907227,1,,1,,,2,,
26111,261,U Lesa,,50.7365837097168,15.097907066345215,1,,1,,,2,,
26211,262,Pampelišková,,50.73975372314453,15.098520278930664,1,,1,,,2,,
26311,263,U Cukrárny,,50.74104690551758,15.096037864685059,1,,1,,,2,,
26511,265,U Krematoria,,50.76144790649414,15.057890892028809,1,,1,,,2,,
26811,309,Bedřichov stadion,,50.794532775878906,15.142501831054688,1,,1,,,2,,
26911,311,Bedřichov Maliník,,50.791229248046875,15.130577087402344,1,,1,,,2,,
27011,312,Bedřichov odb.,,50.79276657104492,15.133438110351562,1,,1,,,2,,
42211,252,Bauhaus,,50.776363372802734,15.023109436035156,1,,1,,,1,,
42811,209,Nemocnice,,50.7704963684082,15.062895774841309,1,,1,,,1,,
42911,201,Klášterní,,50.768917083740234,15.066179275512695,1,,1,,,1,,
43311,239,Doubí - UCT,,50.730140686035156,15.047380447387695,1,,1,,,2,,
43711,323,"Chrastava, aut. nádr.",,50.81642150878906,14.965349197387695,,,1,,,1,,
8652,3 / 1,Americká,,50.75799733,15.03404884,1,,0,111,,2,,
8662,3 / 2,Americká,,50.75783477,15.03379135,1,,0,111,,2,,
8712,106 / 2,Kunratice Mšenská,,50.752410888671875,15.116671562194824,1,,0,211,,2,,
8732,71 / 1,Kynologické cvičiště,,50.75718307495117,15.103372573852539,1,,0,311,,2,,
8742,71 / 2,Kynologické cvičiště,,50.7573356628418,15.103049278259277,1,,0,311,,2,,
8752,69 / 1,Kunratická sídliště,,50.76072311401367,15.095852851867676,1,,0,411,,2,,
8762,69 / 2,Kunratická sídliště,,50.76077651977539,15.095687866210938,1,,0,411,,2,,
8772,69 / 3,Kunratická sídliště,,50.76082532,15.09612019,1,,0,411,,2,,
8782,164 / 1,Východní,,50.76020812988281,15.091724395751953,1,,0,511,,2,,
8792,164 / 2,Východní,,50.76034164428711,15.09161376953125,1,,0,511,,2,,
8802,167 / 1,Ječná,,50.76248550415039,15.08515739440918,1,,0,611,,2,,
8812,167 / 2,Ječná,,50.76250076293945,15.086149215698242,1,,0,611,,2,,
8852,161 / 3,Textilana,,50.76516239,15.06921865,1,,0,811,,2,,
8862,161 / 4,Textilana,,50.76530163,15.06918913,1,,0,811,,2,,
8882,28 / 1,Fügnerova,,50.76582757,15.05792855,1,,0,911,,1,,
8892,28 / 2,Fügnerova,,50.76557332,15.05765985,1,,0,911,,1,,
8902,28 / 3,Fügnerova,,50.76531965,15.05732884,1,,0,911,,1,,
8912,28 / 4,Fügnerova,,50.76512833,15.05708755,1,,0,911,,1,,
8922,28 / 5,Fügnerova,,50.76535283,15.05713657,1,,0,911,,1,,
8932,28 / 6,Fügnerova,,50.76555811,15.05732566,1,,0,911,,1,,
8942,28 / 7,Fügnerova,,50.76583039,15.05767032,1,,0,911,,1,,
8952,28 / 8,Fügnerova,,50.76600598,15.05788892,1,,0,911,,1,,
8962,103 / 1,Babylon,,50.759376525878906,15.052654266357422,1,,0,1011,,2,,
8972,103 / 2,Babylon,,50.7595100402832,15.053099632263184,1,,0,1011,,2,,
8982,99 / 1,Nádraží,,50.76251220703125,15.046425819396973,1,,0,1111,,1,,
8992,99 / 2,Nádraží,,50.7622184753418,15.04660701751709,1,,0,1111,,1,,
9002,185 / 1,Viadukt,,50.76494575,15.04172519,1,,0,1211,,1,,
9012,185 / 2,Viadukt,,50.765220642089844,15.042709350585938,1,,0,1211,,1,,
9022,27 / 1,Františkov škola,,50.76165008544922,15.035057067871094,1,,0,1311,,2,,
9032,27 / 2,Františkov škola,,50.76202392578125,15.035862922668457,1,,0,1311,,2,,
9042,26 / 1,Františkov sídliště,,50.76023483276367,15.031293869018555,1,,0,1411,,2,,
9052,26 / 2,Františkov sídliště,,50.76040267944336,15.032092094421387,1,,0,1411,,2,,
9062,168 / 1,Domažlická,,50.75688552856445,15.031519889831543,1,,0,1511,,2,,
9072,168 / 2,Domažlická,,50.75697326660156,15.031478881835938,1,,0,1511,,2,,
9092,181 / 1,Husitská,,50.75506552,15.02893187,1,,0,1611,,2,,
9102,181 / 2,Husitská,,50.755157470703125,15.02904987335205,1,,0,1611,,2,,
9112,68 / 1,Kubelíkova,,50.75014114379883,15.0328950881958,1,,0,1711,,2,,
9122,68 / 2,Kubelíkova,,50.750213623046875,15.033013343811035,1,,0,1711,,2,,
9132,119 / 1,Banskobystrická,,50.745826721191406,15.035730361938477,1,,0,1811,,2,,
9142,119 / 2,Banskobystrická,,50.74611282348633,15.03592300415039,1,,0,1811,,2,,
9152,221 / 1,Kavkazská,,50.74370193481445,15.037160873413086,1,,0,1911,,2,,
9162,221 / 2,Kavkazská,,50.74383544921875,15.03722858428955,1,,0,1911,,2,,
9172,11 / 1,České mládeže,,50.74335861206055,15.031468391418457,1,,0,2011,,2,,
9182,11 / 2,České mládeže,,50.7435302734375,15.031137466430664,1,,0,2011,,2,,
9192,244 / 2,Průmyslová,,50.74298864,15.03594946,1,,0,2111,,2,,
9202,222 / 1,U Slunného potoka,,50.736000061035156,15.037337303161621,1,,0,2211,,2,,
9212,222 / 2,U Slunného potoka,,50.73650360107422,15.036914825439453,1,,0,2211,,2,,
9222,227 / 1,Prům. zóna Jih,,50.73396301269531,15.041544914245605,1,,0,2311,,2,,
9232,227 / 2,Prům. zóna Jih,,50.73395538330078,15.041760444641113,1,,0,2311,,2,,
9242,199 / 2,Liplastec,,50.73453140258789,15.034133911132812,1,,0,2411,,2,,
9252,238 / 1,OC kino,,50.74174499511719,15.045509338378906,1,,0,2511,,2,,
9262,238 / 2,OC kino,,50.74215316772461,15.045767784118652,1,,0,2511,,2,,
9272,203 / 1,OC Nisa,,50.74127197265625,15.051658630371094,1,,0,2611,,2,,
9282,203 / 2,OC Nisa,,50.740806579589844,15.049302101135254,1,,0,2611,,2,,
9332,59 / 1,Králův Háj,,50.76729202270508,15.08248233795166,1,,0,2711,,2,,
9342,59 / 2,Králův Háj,,50.76725387573242,15.08305549621582,1,,0,2711,,2,,
9352,179 / 1,U Vodárny,,50.76646423339844,15.079568862915039,1,,0,2811,,2,,
9362,179 / 2,U Vodárny,,50.766807556152344,15.07999324798584,1,,0,2811,,2,,
9382,23 / 1,Školní,,50.765682220458984,15.075005531311035,1,,0,2911,,2,,
9392,23 / 2,Školní,,50.7657585144043,15.076177597045898,1,,0,2911,,2,,
9412,186 / 2,Vojtěšská,,50.76583059,15.06973316,1,,0,3011,,2,,
9422,159 / 1,Šaldovo náměstí,,50.76939392089844,15.060340881347656,1,,0,3111,,2,,
9432,159 / 2,Šaldovo náměstí,,50.76911462,15.06022417,1,,0,3111,,2,,
9452,123 / 1,Poliklinika,,50.768226623535156,15.064506530761719,1,,0,3211,,2,,
9462,123 / 2,Poliklinika,,50.76850509643555,15.064055442810059,1,,0,3211,,2,,
9472,213 / 1,Zimní stadion,,50.753990173339844,15.051339149475098,1,,0,3311,,2,,
9492,228 / 1,Ulice 28.října,,50.755531311035156,15.048686981201172,1,,0,3411,,2,,
9502,273 / 1,Herbenova,,50.754295349121094,15.04642391204834,1,,0,3511,,2,,
9512,214 / 1,Aréna,,50.75407028198242,15.050446510314941,1,,0,3611,,2,,
9542,194 / 1,Žitavská,,50.768619537353516,15.042120933532715,1,,0,3711,,2,,
9552,194 / 2,Žitavská,,50.7686767578125,15.041781425476074,1,,0,3711,,2,,
9572,141 / 1,Růžodol I,,50.7750129699707,15.03891372680664,1,,0,3811,,2,,
9582,141 / 2,Růžodol I,,50.774547,15.03921117,1,,0,3811,,2,,
9592,450 / 1,Úvozní,,50.775352478027344,15.033577919006348,1,,0,3911,,2,,
9602,450 / 2,Úvozní,,50.77533721923828,15.034387588500977,1,,0,3911,,2,,
9612,249 / 1,Ostašovská,,50.77322769165039,15.024774551391602,1,,0,4011,,2,,
9622,249 / 2,Ostašovská,,50.77309799194336,15.025216102600098,1,,0,4011,,2,,
9632,250 / 1,Obchodní,,50.77549743652344,15.019882202148438,1,,0,4111,,2,,
9642,250 / 2,Obchodní,,50.775177001953125,15.019994735717773,1,,0,4111,,2,,
9652,251 / 2,Průmyslová zóna sever,,50.779335021972656,15.018891334533691,1,,0,4211,,2,,
9662,7 / 1,Broumovská,,50.75984573364258,15.063509941101074,1,,0,4311,,2,,
9672,120 / 2,Plátenická,,50.76016245,15.06666337,1,,0,4411,,2,,
9682,120 / 1,Plátenická,,50.760169982910156,15.067214965820312,1,,0,4411,,2,,
9692,100 / 2,Na Kačírku,,50.75883865356445,15.070409774780273,1,,0,4511,,2,,
9702,100 / 1,Na Kačírku,,50.7595100402832,15.069689750671387,1,,0,4511,,2,,
9712,198 / 2,Ševčíkova,,50.75743865966797,15.070527076721191,1,,0,4611,,2,,
9722,198 / 1,Ševčíkova,,50.75746508,15.07086438,1,,0,4611,,2,,
9732,114 / 1,Pekárny,,50.746910095214844,15.077462196350098,1,,0,4711,,2,,
9742,192 / 2,Zelené Údolí,,50.74859517,15.07301013,1,,0,4811,,2,,
9752,192 / 1,Zelené Údolí,,50.74890489,15.07270705,1,,0,4811,,2,,
9782,63 / 2,Krejčího,,50.7523078918457,15.06917667388916,1,,0,4911,,2,,
9792,63 / 1,Krejčího,,50.7518196105957,15.069724082946777,1,,0,4911,,2,,
9802,14 / 2,Dobiášova,,50.75194549560547,15.063896179199219,1,,0,5011,,2,,
9812,14 / 1,Dobiášova,,50.75185012817383,15.063985824584961,1,,0,5011,,2,,
9822,174 / 1,Horní Kopečná,,50.75502014160156,15.063382148742676,1,,0,5111,,2,,
9832,174 / 2,Horní Kopečná,,50.75484085083008,15.063756942749023,1,,0,5111,,2,,
9842,172 / 2,U Močálu,,50.7569764,15.06112796,1,,0,5211,,2,,
9852,57 / 1,Košická,,50.760154724121094,15.05567741394043,1,,0,5311,,2,,
9862,57 / 2,Košická,,50.7603874206543,15.055438995361328,1,,0,5311,,2,,
9872,5 / 1,Nám.Dr.E.Beneše,,50.77014923095703,15.058027267456055,1,,0,5411,,2,,
9882,5 / 2,Nám.Dr.E.Beneše,,50.770103454589844,15.058479309082031,1,,0,5411,,2,,
9892,5 / 3,Nám.Dr.E.Beneše,,50.7700309753418,15.058745384216309,1,,0,5411,,2,,
9902,88 / 1,Malé náměstí,,50.77089309692383,15.053215980529785,1,,0,5511,,2,,
9912,88 / 2,Malé náměstí,,50.77082061767578,15.052273750305176,1,,0,5511,,2,,
9922,178 / 1,U Věže,,50.77260971069336,15.04737377166748,1,,0,5611,,2,,
9932,178 / 2,U Věže,,50.77265548706055,15.046988487243652,1,,0,5611,,2,,
9942,21 / 1,Dožínková,,50.7742805480957,15.0432767868042,1,,0,5711,,2,,
9952,21 / 2,Dožínková,,50.77397537231445,15.044600486755371,1,,0,5711,,2,,
9962,124 / 1,Stračí,,50.78109359741211,15.040154457092285,1,,0,5811,,2,,
9972,124 / 2,Stračí,,50.78028795,15.0395697,1,,0,5811,,2,,
9982,112 / 1,Pavlovice stadion,,50.78260040283203,15.042142868041992,1,,0,5911,,2,,
9992,112 / 2,Pavlovice stadion,,50.78251171,15.04162763,1,,0,5911,,2,,
10002,113 / 1,Pavlovice škola,,50.78400745,15.04539077,1,,0,6011,,2,,
10012,113 / 2,Pavlovice škola,,50.78405832,15.04519362,1,,0,6011,,2,,
10022,75 / 1,Pavlovice Letná,,50.78570111,15.05057078,1,,0,6111,,2,,
10032,75 / 2,Pavlovice Letná,,50.78528395,15.0494228,1,,0,6111,,2,,
10042,140 / 1,Růžodol Mlýn,,50.78112578,15.03002238,1,,0,6211,,2,,
10052,140 / 2,Růžodol Mlýn,,50.78139119,15.02856325,1,,0,6211,,2,,
10062,156 / 1,Stráž nad Nisou Oblouková,,50.785247802734375,15.024995803833008,1,,0,6311,,2,,
10072,156 / 2,Stráž nad Nisou Oblouková,,50.78507614135742,15.024789810180664,1,,0,6311,,2,,
10082,153 / 1,Stráž nad Nisou elektrárna,,50.789730072021484,15.021221160888672,1,,0,6411,,2,,
10092,153 / 2,Stráž nad Nisou elektrárna,,50.78952407836914,15.02139949798584,1,,0,6411,,2,,
10102,152 / 1,Stráž nad Nisou,,50.79071044921875,15.02601432800293,1,,0,6511,,2,,
10122,28 / 9,Fügnerova,,50.765846252441406,15.05691146850586,1,,0,911,,1,,
10192,51 / 1,Karlinky,,50.75932693481445,15.021865844726562,1,,0,6611,,2,,
10202,51 / 2,Karlinky,,50.759307861328125,15.021739959716797,1,,0,6611,,2,,
10212,146 / 1,Slévárna,,50.76181411743164,15.020980834960938,1,,0,6711,,2,,
10222,146 / 2,Slévárna,,50.76171112060547,15.020879745483398,1,,0,6711,,2,,
10232,58 / 1,Kovošrot,,50.762786865234375,15.01736068725586,1,,0,6811,,2,,
10242,58 / 2,Kovošrot,,50.7626838684082,15.017563819885254,1,,0,6811,,2,,
10252,109 / 1,Ostašov škola,,50.76514434814453,15.010660171508789,1,,0,6911,,2,,
10262,109 / 2,Ostašov škola,,50.76499557495117,15.010376930236816,1,,0,6911,,2,,
10292,108 / 1,Ostašov,,50.76822947,15.0121877,1,,0,7011,,2,,
10302,53 / 1,Karlovská,,50.771583557128906,14.998392105102539,1,,0,7111,,2,,
10312,53 / 2,Karlovská,,50.77151870727539,14.998414993286133,1,,0,7111,,2,,
10322,13 / 1,Českolipská,,50.77473449707031,14.992923736572266,1,,0,7211,,2,,
10332,13 / 2,Českolipská,,50.77463912963867,14.99295711517334,1,,0,7211,,2,,
10342,52 / 1,Karlov,,50.77688980102539,14.988011360168457,1,,0,7311,,2,,
10352,52 / 2,Karlov,,50.7768440246582,14.987959861755371,1,,0,7311,,2,,
10362,87 / 1,Machnín statek,,50.783660888671875,14.990644454956055,1,,0,7411,,2,,
10372,87 / 2,Machnín statek,,50.783668518066406,14.990561485290527,1,,0,7411,,2,,
10382,85 / 1,Machnín,,50.789207458496094,14.991231918334961,1,,0,7511,,2,,
10392,85 / 2,Machnín,,50.788848876953125,14.990793228149414,1,,0,7511,,2,,
10402,86 / 1,Machnín žel. zast.,,50.78776168823242,14.984936714172363,1,,0,7611,,2,,
10412,86 / 2,Machnín žel. zast.,,50.78777313232422,14.985635757446289,1,,0,7611,,2,,
10442,66 / 1,Kryštofovo Údolí lom,,50.779178619384766,14.95123291015625,1,,0,7811,,2,,
10452,66 / 2,Kryštofovo Údolí lom,,50.77882766723633,14.950653076171875,1,,0,7811,,2,,
10462,65 / 1,Kryštofovo Údolí,,50.77766799926758,14.943023681640625,1,,0,7911,,2,,
10472,65 / 2,Kryštofovo Údolí,,50.77762985229492,14.943161964416504,1,,0,7911,,2,,
10482,67 / 1,Kryšt. Údolí ob. úřad,,50.77361561,14.93235242,1,,0,8011,,2,,
10492,67 / 2,Kryšt. Údolí ob. úřad,,50.77366946,14.9324986,1,,0,8011,,2,,
10512,104 / 2,Novina,,50.76359853,14.94020593,1,,0,8111,,2,,
10532,207 / 1,Univerzitní koleje,,50.76833724975586,15.087369918823242,1,,0,8311,,2,,
10552,176 / 1,U Terstu,,50.767059326171875,15.089871406555176,1,,0,8411,,2,,
10562,176 / 2,U Terstu,,50.767181396484375,15.089594841003418,1,,0,8411,,2,,
10572,48 / 1,Vlčí vrch,,50.767417907714844,15.095503807067871,1,,0,8511,,2,,
10582,48 / 2,Vlčí vrch,,50.76753234863281,15.095311164855957,1,,0,8511,,2,,
10592,32 / 1,Harcov kostel,,50.765869140625,15.099675178527832,1,,0,8611,,2,,
10602,32 / 2,Harcov kostel,,50.76610565185547,15.099054336547852,1,,0,8611,,2,,
10622,73 / 1,Vřesová,,50.76198959350586,15.105072975158691,1,,0,8711,,2,,
10632,73 / 2,Vřesová,,50.76206970214844,15.1049165725708,1,,0,8711,,2,,
10642,50 / 1,Kadlická,,50.761451721191406,15.110308647155762,1,,0,8811,,2,,
10652,50 / 2,Kadlická,,50.76151657104492,15.11020278930664,1,,0,8811,,2,,
10662,33 / 1,Harcov Myslivna,,50.758216857910156,15.116860389709473,1,,0,8911,,2,,
10672,33 / 2,Harcov Myslivna,,50.75831985473633,15.116874694824219,1,,0,8911,,2,,
10732,149 / 1,Sokolská u zdi,,50.77099722,15.05941738,1,,0,9311,,2,,
10752,162 / 1,Tržní náměstí,,50.77573013305664,15.062093734741211,1,,0,9411,,2,,
10762,162 / 2,Tržní náměstí,,50.77398681640625,15.061751365661621,1,,0,9411,,2,,
10772,195 / 1,Žižkovo náměstí,,50.779823303222656,15.06877613067627,1,,0,9511,,2,,
10782,195 / 2,Žižkovo náměstí,,50.77963638305664,15.068779945373535,1,,0,9511,,2,,
10792,4 / 1,Baltská,,50.78210619,15.07085432,1,,0,9611,,2,,
10802,4 / 2,Baltská,,50.78188705444336,15.07043743133545,1,,0,9611,,2,,
10812,38 / 1,U Trianglu,,50.78589630126953,15.072988510131836,1,,0,9711,,2,,
10822,38 / 2,U Trianglu,,50.78623580932617,15.073198318481445,1,,0,9711,,2,,
10832,175 / 1,U Pramenů,,50.78881526,15.07575605,1,,0,9811,,2,,
10842,175 / 2,U Pramenů,,50.789302825927734,15.075243949890137,1,,0,9811,,2,,
10852,175 / 3,U Pramenů,,50.78829214,15.0758278,1,,0,9811,,2,,
10862,177 / 1,U Transformátoru,,50.7911262512207,15.074969291687012,1,,0,9911,,2,,
10872,177 / 2,U Transformátoru,,50.79112243652344,15.074776649475098,1,,0,9911,,2,,
10882,6 / 1,Blanická,,50.79495620727539,15.072279930114746,1,,0,10011,,2,,
10892,6 / 2,Blanická,,50.7947998046875,15.072165489196777,1,,0,10011,,2,,
10902,9 / 1,Kateřinky křižovatka,,50.79689025878906,15.089672088623047,1,,0,10111,,2,,
10912,9 / 2,Kateřinky křižovatka,,50.796932220458984,15.089691162109375,1,,0,10111,,2,,
10922,56 / 1,Škola Kateřinky,,50.79801940917969,15.097073554992676,1,,0,10211,,2,,
10932,56 / 2,Škola Kateřinky,,50.79802703857422,15.09676456451416,1,,0,10211,,2,,
10942,56 / 3,Škola Kateřinky (školní dvůr),,50.79783223,15.09834294,1,,0,10211,,2,,
10952,165 / 1,Kateřinky učiliště,,50.796993255615234,15.102669715881348,1,,0,10311,,2,,
10962,165 / 2,Kateřinky učiliště,,50.79688327,15.10186535,1,,0,10311,,2,,
10972,24 / 1,Rudolfov elektrárna,,50.794734954833984,15.10917854309082,1,,0,10411,,2,,
10982,24 / 2,Rudolfov elektrárna,,50.794830322265625,15.108914375305176,1,,0,10411,,2,,
10992,35 / 1,Rudolfov has.zbroj.,,50.79100036621094,15.11258602142334,1,,0,10511,,2,,
11002,35 / 2,Rudolfov has.zbroj.,,50.79100799560547,15.112693786621094,1,,0,10511,,2,,
11012,136 / 3,Rudolfov,,50.78633499145508,15.111165046691895,1,,0,10611,,2,,
11032,41 / 1,Husova,,50.77164077758789,15.071029663085938,1,,0,10711,,2,,
11042,41 / 2,Husova,,50.77178192138672,15.071211814880371,1,,0,10711,,2,,
11052,158 / 1,Technická univerzita,,50.77250693,15.07664185,1,,0,10811,,2,,
11062,158 / 2,Technická univerzita,,50.77256969,15.07638436,1,,0,10811,,2,,
11072,8 / 1,Březová alej,,50.77417802,15.08574192,1,,0,10911,,2,,
11082,8 / 2,Březová alej,,50.7742306,15.08566816,1,,0,10911,,2,,
11092,8 / 3,Březová alej,,50.77436447143555,15.084626197814941,1,,0,10911,,2,,
11102,77 / 2,Lesní správa,,50.773643493652344,15.091980934143066,1,,0,11011,,2,,
11112,77 / 1,Lesní správa,,50.7735710144043,15.09183120727539,1,,0,11011,,2,,
11122,190 / 1,Zahrádky,,50.77636199,15.09951573,1,,0,11111,,2,,
11132,190 / 2,Zahrádky,,50.77601623535156,15.09920883178711,1,,0,11111,,2,,
11142,34 / 1,Harcov Střelnice,,50.777801513671875,15.10317325592041,1,,0,11211,,2,,
11152,34 / 2,Harcov Střelnice,,50.77783203125,15.102991104125977,1,,0,11211,,2,,
11162,90 / 1,Melantrichova,,50.757381439208984,15.058762550354004,1,,0,11311,,2,,
11172,90 / 2,Melantrichova,,50.757266998291016,15.058921813964844,1,,0,11311,,2,,
11212,10 / 1,Čechova,,50.75503158569336,15.055094718933105,1,,0,11411,,2,,
11222,10 / 2,Čechova,,50.75509262084961,15.055291175842285,1,,0,11411,,2,,
11232,97 / 1,Mostecká,,50.7513542175293,15.056578636169434,1,,0,11511,,2,,
11242,97 / 2,Mostecká,,50.752113342285156,15.056384086608887,1,,0,11511,,2,,
11252,134 / 1,Rochlice,,50.746978759765625,15.063115119934082,1,,0,11611,,2,,
11262,134 / 2,Rochlice,,50.74725276,15.06311145,1,,0,11611,,2,,
11272,134 / 3,Rochlice,,50.74723409,15.06229069,1,,0,11611,,2,,
11282,134 / 4,Rochlice,,50.74662780761719,15.062291145324707,1,,0,11611,,2,,
11292,82 / 1,Kamenická,,50.74370711,15.0609335,1,,0,11711,,2,,
11302,82 / 2,Kamenická,,50.74361885,15.05886015,1,,0,11711,,2,,
11312,202 / 1,Doubská,,50.743553161621094,15.05487060546875,1,,0,11811,,2,,
11322,202 / 2,Doubská,,50.74310302734375,15.0551176071167,1,,0,11811,,2,,
11332,17 / 1,Doubí mlýn,,50.73947525024414,15.056194305419922,1,,0,11911,,2,,
11342,17 / 2,Doubí mlýn,,50.74021530151367,15.056136131286621,1,,0,11911,,2,,
11352,18 / 1,Doubí pošta,,50.73450469970703,15.056886672973633,1,,0,12011,,2,,
11362,18 / 2,Doubí pošta,,50.735107421875,15.057151794433594,1,,0,12011,,2,,
11372,20 / 1,Doubí obilná,,50.7304801940918,15.054977416992188,1,,0,12111,,2,,
11382,20 / 2,Doubí obilná,,50.73002624511719,15.054402351379395,1,,0,12111,,2,,
11402,92 / 1,Pilínkov křižovatka,,50.725555419921875,15.046879768371582,1,,0,12211,,2,,
11412,92 / 2,Pilínkov křižovatka,,50.72539520263672,15.04668140411377,1,,0,12211,,2,,
11422,116 / 1,Pilínkov,,50.724998474121094,15.04058837890625,1,,0,12311,,2,,
11432,116 / 2,Pilínkov,,50.724700927734375,15.040834426879883,1,,0,12311,,2,,
11442,93 / 1,Minkovice kovárna,,50.72385025024414,15.046542167663574,1,,0,12411,,2,,
11452,93 / 2,Minkovice kovárna,,50.723915100097656,15.046634674072266,1,,0,12411,,2,,
11462,94 / 1,Minkovice statek,,50.71913528442383,15.055238723754883,1,,0,12511,,2,,
11472,94 / 2,Minkovice statek,,50.71913528442383,15.05538558959961,1,,0,12511,,2,,
11482,196 / 1,Minkovice žel. přejezd,,50.7136116027832,15.05465316772461,1,,0,12611,,2,,
11492,196 / 2,Minkovice žel. přejezd,,50.7135009765625,15.05463695526123,1,,0,12611,,2,,
11502,160 / 1,Šimonovice,,50.70784378051758,15.053977966308594,1,,0,12711,,2,,
11512,160 / 2,Šimonovice,,50.70792353,15.05422261,1,,0,12711,,2,,
11522,19 / 1,Doubí sídliště,,50.73725891113281,15.05334186553955,1,,0,12911,,2,,
11532,19 / 2,Doubí sídliště,,50.73710250854492,15.053893089294434,1,,0,12911,,2,,
11542,89 / 1,Mařanova,,50.73720169067383,15.057656288146973,1,,0,13011,,2,,
11552,89 / 2,Mařanova,,50.73708724975586,15.057967185974121,1,,0,13011,,2,,
11562,184 / 1,Vesec U Střediska,,50.73720169067383,15.062263488769531,1,,0,13111,,2,,
11572,184 / 2,Vesec U Střediska,,50.73720169067383,15.062555313110352,1,,0,13111,,2,,
11582,145 / 1,Vesec samoobsluha,,50.73820495605469,15.064131736755371,1,,0,13211,,2,,
11592,145 / 2,Vesec samoobsluha,,50.738128662109375,15.064319610595703,1,,0,13211,,2,,
11602,80 / 1,Jeřmanická,,50.74114990234375,15.068718910217285,1,,0,13311,,2,,
11612,80 / 2,Jeřmanická,,50.7413215637207,15.069026947021484,1,,0,13311,,2,,
11622,96 / 1,Na Srázu,,50.74380111694336,15.065963745117188,1,,0,13411,,2,,
11632,84 / 1,Slovanská,,50.745948791503906,15.065224647521973,1,,0,13511,,2,,
11642,84 / 2,Slovanská,,50.74532699584961,15.065681457519531,1,,0,13511,,2,,
11662,148 / 2,Sokolská,,50.77195739746094,15.05611515045166,1,,0,13711,,2,,
11672,166 / 1,U Dvora,,50.774898529052734,15.054764747619629,1,,0,13811,,2,,
11682,166 / 2,U Dvora,,50.7747802734375,15.05436897277832,1,,0,13811,,2,,
11692,16 / 1,Dopravní hřiště,,50.776790618896484,15.053669929504395,1,,0,13911,,2,,
11702,16 / 2,Dopravní hřiště,,50.77658462524414,15.053537368774414,1,,0,13911,,2,,
11712,189 / 1,Vrchlického,,50.78031546,15.05396646,1,,0,14011,,2,,
11722,189 / 2,Vrchlického,,50.78003308,15.05398389,1,,0,14011,,2,,
11732,39 / 1,Hrdinů,,50.78226089477539,15.050581932067871,1,,0,14111,,2,,
11742,39 / 2,Hrdinů,,50.78232955932617,15.050405502319336,1,,0,14111,,2,,
11752,74 / 1,Letná,,50.785552978515625,15.051946640014648,1,,0,14211,,2,,
11762,74 / 2,Letná,,50.78477478027344,15.052026748657227,1,,0,14211,,2,,
11772,111 / 1,Pavlovice křižovatka,,50.789642333984375,15.04466724395752,1,,0,14311,,2,,
11782,111 / 2,Pavlovice křižovatka,,50.789180755615234,15.044583320617676,1,,0,14311,,2,,
11792,111 / 3,Pavlovice křižovatka,,50.78938293457031,15.04568099975586,1,,0,14311,,2,,
11802,111 / 5,Pavlovice křižovatka,,50.78944396972656,15.04452133178711,1,,0,14311,,2,,
11812,107 / 1,Obzor,,50.79296112060547,15.056716918945312,1,,0,14411,,2,,
11822,107 / 2,Obzor,,50.79298400878906,15.056631088256836,1,,0,14411,,2,,
11832,46 / 1,Janův most,,50.795249938964844,15.059744834899902,1,,0,14511,,2,,
11842,46 / 2,Janův most,,50.79527282714844,15.059334754943848,1,,0,14511,,2,,
11852,115 / 1,Nad Pianovkou,,50.79581832885742,15.064998626708984,1,,0,14611,,2,,
11862,115 / 2,Nad Pianovkou,,50.7957649230957,15.064757347106934,1,,0,14611,,2,,
11872,122 / 1,Pod Záložnou,,50.79841565,15.07105079,1,,0,14711,,2,,
11882,122 / 2,Pod Záložnou,,50.79852924,15.07092472,1,,0,14711,,2,,
11892,55 / 1,Kateřinky Zlatá ulička,,50.79857635498047,15.077333450317383,1,,0,14811,,2,,
11902,55 / 2,Kateřinky Zlatá ulička,,50.798648834228516,15.077333450317383,1,,0,14811,,2,,
11912,54 / 1,Kateřinky lesní správa,,50.79725646972656,15.085203170776367,1,,0,17011,,2,,
11922,54 / 2,Kateřinky lesní správa,,50.79732894897461,15.085232734680176,1,,0,17011,,2,,
11932,54 / 3,Kateřinky lesní správa,,50.79722742,15.08474078,1,,0,17011,,2,,
11942,139 / 1,Ruprechtická,,50.77770575,15.06174621,1,,0,18311,,2,,
11952,139 / 2,Ruprechtická,,50.77780921,15.0616416,1,,0,18311,,2,,
11962,169 / 1,U Jelena,,50.780887603759766,15.064078330993652,1,,0,18411,,2,,
11972,169 / 2,U Jelena,,50.77997970581055,15.063117980957031,1,,0,18411,,2,,
11982,143 / 2,Rychtářská,,50.78206477,15.0648306,1,,0,18511,,2,,
11992,163 / 1,U Beránka,,50.78459548950195,15.065260887145996,1,,0,18611,,2,,
12002,163 / 2,U Beránka,,50.783931732177734,15.065200805664062,1,,0,18611,,2,,
12012,36 / 1,Hlávkova,,50.78628921508789,15.063090324401855,1,,0,18711,,2,,
12022,36 / 2,Hlávkova,,50.785823822021484,15.063819885253906,1,,0,18711,,2,,
12032,138 / 1,Ruprechtice sídliště,,50.78740310668945,15.058123588562012,1,,0,18811,,2,,
12042,138 / 2,Ruprechtice sídliště,,50.787139892578125,15.057908058166504,1,,0,18811,,2,,
12052,224 / 1,Na Pískovně,,50.78883743286133,15.050549507141113,1,,0,18911,,2,,
12062,230 / 2,Jiráskova,,50.786834716796875,15.049657821655273,1,,0,19011,,2,,
12072,208 / 1,Polní,,50.78569030761719,15.035184860229492,1,,0,19111,,2,,
12082,232 / 1,Zelná,,50.77268600463867,15.032891273498535,1,,0,19211,,2,,
12092,232 / 2,Zelná,,50.77247619628906,15.033153533935547,1,,0,19211,,2,,
12122,204 / 2,Globus,,50.77736282348633,15.031188011169434,1,,0,19311,,2,,
12142,204 / 1,Globus,,50.77748107910156,15.03093147277832,1,,0,19311,,2,,
12152,204 / 3,Globus,,50.77759552001953,15.030856132507324,1,,0,19311,,2,,
12162,132 / 2,U Radčického potoka,,50.79343568,15.04173016,1,,0,19411,,2,,
12172,135 / 1,Radčice rozcestí,,50.80080182,15.05563376,1,,0,19511,,2,,
12182,135 / 2,Radčice rozcestí,,50.800819396972656,15.055509567260742,1,,0,19511,,2,,
12192,47 / 1,Jedlová,,50.803009033203125,15.060126304626465,1,,0,19611,,2,,
12202,47 / 2,Jedlová,,50.80290136,15.06006178,1,,0,19611,,2,,
12212,131 / 2,Radčice,,50.80525207519531,15.0641450881958,1,,0,19711,,2,,
12222,170 / 2,U Lípy,,50.799827575683594,15.041481018066406,1,,0,19811,,2,,
12232,137 / 1,Ruprechtice náměstí,,50.78947448730469,15.067401885986328,1,,0,19911,,2,,
12242,61 / 1,Krásná Studánka kovárna,,50.800323486328125,15.037363052368164,1,,0,20011,,2,,
12252,61 / 2,Krásná Studánka kovárna,,50.7999267578125,15.037313461303711,1,,0,20011,,2,,
12262,62 / 1,Krásná Studánka Švestková,,50.80370330810547,15.036737442016602,1,,0,20111,,2,,
12272,62 / 2,Krásná Studánka Švestková,,50.80228805541992,15.036755561828613,1,,0,20111,,2,,
12282,60 / 2,Krásná Studánka,,50.809967041015625,15.035652160644531,1,,0,20211,,2,,
12292,101 / 1,Na Vršku,,50.79563003,15.02855292,1,,0,20311,,2,,
12302,101 / 2,Na Vršku,,50.7960205078125,15.029003143310547,1,,0,20311,,2,,
12312,154 / 1,Stráž nad Nisou Neumannova,,50.78901672363281,15.029495239257812,1,,0,20411,,2,,
12322,154 / 2,Stráž nad Nisou Neumannova,,50.78906452,15.02882075,1,,0,20411,,2,,
12332,133 / 1,Stráž nad Nisou Kateřinská,,50.78972409,15.03734347,1,,0,20511,,2,,
12342,133 / 2,Stráž nad Nisou Kateřinská,,50.78975801,15.03679093,1,,0,20511,,2,,
12352,40 / 1,Hrubínova,,50.76211166381836,15.090420722961426,1,,0,20611,,2,,
12362,40 / 2,Hrubínova,,50.762115478515625,15.090734481811523,1,,0,20611,,2,,
12372,176 / 4,U Terstu,,50.766868591308594,15.089037895202637,1,,0,8411,,2,,
12382,176 / 3,U Terstu,,50.76660688,15.08884455,1,,0,8411,,2,,
12392,29 / 1,Garáže ČSAD,,50.7452278137207,15.051082611083984,1,,0,20711,,2,,
12402,29 / 2,Garáže ČSAD,,50.74509811401367,15.051140785217285,1,,0,20711,,2,,
12412,144 / 1,Sametová,,50.75891876220703,15.073529243469238,1,,0,20811,,2,,
12422,144 / 2,Sametová,,50.75891876220703,15.074044227600098,1,,0,20811,,2,,
12432,171 / 1,U Lomu,,50.76282501220703,15.074761390686035,1,,0,20911,,2,,
12442,171 / 2,U Lomu,,50.76293182373047,15.074628829956055,1,,0,20911,,2,,
12452,49 / 1,Jungmannova,,50.767391204833984,15.045858383178711,1,,0,21011,,2,,
12462,49 / 2,Jungmannova,,50.768245697021484,15.047951698303223,1,,0,21011,,2,,
12472,180 / 1,U Soudu,,50.7698971,15.04860016,1,,0,21111,,2,,
12482,180 / 2,U Soudu,,50.76968257,15.04870844,1,,0,21111,,2,,
12492,162 / 3,Tržní náměstí,,50.77361297607422,15.061883926391602,1,,0,9411,,2,,
12502,132 / 1,U Radčického potoka,,50.794246673583984,15.041566848754883,1,,0,19411,,2,,
12542,81 / 2,Lidové sady - ZOO,,50.777587890625,15.08138656616211,1,,0,21311,,1,,
12552,81 / 1,Lidové sady - ZOO,,50.777442932128906,15.081521034240723,1,,0,21311,,1,,
12562,76 / 2,Riegrova,,50.77630615234375,15.078843116760254,1,,0,21411,,2,,
12572,76 / 1,Riegrova,,50.77641677856445,15.07923412322998,1,,0,21411,,2,,
12582,193 / 2,Botanická zahrada,,50.77595138549805,15.074516296386719,1,,0,21511,,1,,
12592,193 / 1,Botanická zahrada,,50.77604293823242,15.075309753417969,1,,0,21511,,1,,
12602,98 / 2,Muzeum - Galerie Lázně,,50.77421188354492,15.068305969238281,1,,0,21611,,1,,
12612,98 / 1,Muzeum - Galerie Lázně,,50.7739735,15.06774362,1,,0,21611,,1,,
12622,129 / 2,Průmyslová škola,,50.772430419921875,15.064207077026367,1,,0,21711,,1,,
12632,129 / 1,Průmyslová škola,,50.772560119628906,15.064435005187988,1,,0,21711,,1,,
12642,110 / 2,Ulice 5.května,,50.7705078125,15.061333656311035,1,,0,21811,,1,,
12652,110 / 1,Ulice 5.května,,50.77130889892578,15.0626802444458,1,,0,21811,,1,,
12672,306 / 1,NC Géčko,,50.77617263793945,15.029256820678711,1,,0,21911,,2,,
12682,142 / 2,Rybníček,,50.76559829711914,15.052528381347656,1,,0,22011,,1,,
12692,142 / 1,Rybníček,,50.765262603759766,15.05189037322998,1,,0,22011,,1,,
12702,185 / 3,Viadukt,,50.764503479003906,15.042619705200195,1,,0,1211,,1,,
12712,185 / 4,Viadukt,,50.76492691040039,15.043957710266113,1,,0,1211,,1,,
12722,64 / 2,Krkonošská,,50.76084899902344,15.042240142822266,1,,0,22111,,1,,
12732,64 / 1,Krkonošská,,50.760047912597656,15.042404174804688,1,,0,22111,,1,,
12742,173 / 2,Staré pekárny,,50.75751495361328,15.043174743652344,1,,0,22211,,1,,
12752,173 / 1,Staré pekárny,,50.75746154785156,15.04313850402832,1,,0,22211,,1,,
12762,183 / 1,Vápenka,,50.755165100097656,15.040975570678711,1,,0,22311,,1,,
12772,183 / 2,Vápenka,,50.75577163696289,15.042292594909668,1,,0,22311,,1,,
12782,45 / 1,Janův důl,,50.752845764160156,15.036084175109863,1,,0,22411,,1,,
12792,45 / 2,Janův důl,,50.752994537353516,15.037522315979004,1,,0,22411,,1,,
12802,68 / 4,Kubelíkova,,50.750728607177734,15.032023429870605,1,,0,1711,,2,,
12812,68 / 3,Kubelíkova,,50.751033782958984,15.032551765441895,1,,0,1711,,2,,
12822,15 / 1,Dolní Hanychov,,50.74742126464844,15.027822494506836,1,,0,22511,,1,,
12832,15 / 2,Dolní Hanychov,,50.747703552246094,15.028010368347168,1,,0,22511,,1,,
12842,15 / 3,Dolní Hanychov,,50.74748229980469,15.028240203857422,1,,0,22511,,1,,
12852,12 / 1,Malodoubská,,50.74399185180664,15.025327682495117,1,,0,22611,,1,,
12862,12 / 2,Malodoubská,,50.74343490600586,15.024454116821289,1,,0,22611,,1,,
12872,30 / 1,Hanychov kostel,,50.741580963134766,15.021220207214355,1,,0,22711,,1,,
12882,30 / 2,Hanychov kostel,,50.74201965332031,15.021347999572754,1,,0,22711,,1,,
12892,151 / 1,Spáleniště,,50.74026870727539,15.016921997070312,1,,0,22811,,1,,
12902,151 / 2,Spáleniště,,50.7401123046875,15.017046928405762,1,,0,22811,,1,,
12912,37 / 1,Horní Hanychov,,50.73794937133789,15.012177467346191,1,,0,22911,,1,,
12922,37 / 2,Horní Hanychov,,50.7381591796875,15.012431144714355,1,,0,22911,,1,,
12932,95 / 1,Mlýnská,,50.76414108276367,15.063531875610352,1,,0,23011,,2,,
12942,95 / 2,Mlýnská,,50.76445770263672,15.061966896057129,1,,0,23011,,2,,
12952,28 / 10,Fügnerova,,50.76625442504883,15.056205749511719,1,,0,911,,1,,
12962,142 / 3,Rybníček,,50.76436996459961,15.051607131958008,1,,0,22011,,1,,
12972,142 / 4,Rybníček,,50.76453399658203,15.0519437789917,1,,0,22011,,1,,
12992,161 / 1,Textilana,,50.76498794555664,15.06787109375,1,,0,811,,2,,
13002,161 / 2,Textilana,,50.76493835449219,15.067463874816895,1,,0,811,,2,,
13012,105 / 1,Nová Ruda,,50.756675720214844,15.079954147338867,1,,0,23111,,1,,
13022,105 / 2,Nová Ruda,,50.756561279296875,15.079987525939941,1,,0,23111,,1,,
13032,182 / 1,Sídliště Nové Vratislavice,,50.75264057,15.07917654,1,,0,23211,,1,,
13042,182 / 2,Sídliště Nové Vratislavice,,50.75289809,15.07905048,1,,0,23211,,1,,
13052,117 / 1,Pivovarská,,50.74879837036133,15.082610130310059,1,,0,23311,,1,,
13062,78 / 1,Lékárna,,50.7457275390625,15.085367202758789,1,,0,23411,,1,,
13072,78 / 2,Lékárna,,50.74602127075195,15.085183143615723,1,,0,23411,,1,,
13082,187 / 1,Vratislavice n.N. kostel,,50.742835998535156,15.093812942504883,1,,0,23511,,1,,
13092,187 / 2,Vratislavice n.N. kostel,,50.74293899536133,15.092778205871582,1,,0,23511,,1,,
13102,188 / 1,Vratislavice n.N. výhybna,,50.740962982177734,15.102465629577637,1,,0,23611,,1,,
13112,188 / 2,Vratislavice n.N. výhybna,,50.74110412597656,15.10204792022705,1,,0,23611,,1,,
13122,188 / 3,Vratislavice n.N. výhybna,,50.74082238,15.10194715,1,,0,23611,,1,,
13162,126 / 1,Za Tratí,,50.73105239868164,15.111188888549805,"1, 2",,0,23811,,2,,
13172,126 / 2,Za Tratí,,50.73091506958008,15.1112642288208,"1, 2",,0,23811,,2,,
13262,91 / 1,Měnírna,,50.72209548950195,15.148130416870117,2,,0,24311,,2,,
13272,91 / 2,Měnírna,,50.72138595581055,15.147561073303223,2,,0,24311,,2,,
13292,197 / 1,Ježkova,,50.75249481201172,15.070109367370605,1,,0,24511,,2,,
13312,231 / 1,ZŠ Jabloňová,,50.782569885253906,15.043475151062012,1,,0,24611,,2,,
13322,46 / 3,Janův most,,50.795467376708984,15.060847282409668,1,,0,14511,,2,,
13332,121 / 1,Brandl,,50.72822952270508,15.152021408081055,2,,0,24711,,1,,
13342,121 / 2,Brandl,,50.72816467285156,15.151649475097656,2,,0,24711,,1,,
13352,102 / 1,Liberecká,,50.72567367553711,15.160298347473145,2,,0,24811,,2,,
13362,102 / 2,Liberecká,,50.72573471069336,15.160155296325684,2,,0,24811,,2,,
13372,43 / 1,"Jablonec n.N., Tyršovy sady",,50.723045349121094,15.16390609741211,2,,0,24911,,1,,
13382,43 / 2,"Jablonec n.N., Tyršovy sady",,50.72294235229492,15.164320945739746,2,,0,24911,,1,,
13392,226 / 1,ZŠ Vrchlického,,50.782230377197266,15.058032989501953,1,,0,25011,,2,,
13402,185 / 5,Viadukt,,50.76489884,15.04255658,1,,0,1211,,1,,
13412,36 / 3,Hlávkova,,50.78556823730469,15.062724113464355,1,,0,18711,,2,,
13522,117 / 2,Pivovarská,,50.7481689453125,15.083205223083496,1,,0,23311,,1,,
13582,111 / 4,Pavlovice křižovatka,,50.78913497924805,15.044365882873535,1,,0,14311,,2,,
13632,187 / 4,Vratislavice n.N. kostel,,50.743228912353516,15.091967582702637,1,,0,23511,,1,,
13642,187 / 3,Vratislavice n.N. kostel,,50.742881774902344,15.093549728393555,1,,0,23511,,1,,
13682,253 / 1,Vratislavice n.N. škola,,50.74336624145508,15.092827796936035,1,,0,25311,,2,,
13692,253 / 2,Vratislavice n.N. škola,,50.743446350097656,15.093021392822266,1,,0,25311,,2,,
13702,254 / 1,Vinařská,,50.745758056640625,15.081548690795898,1,,0,25411,,2,,
13712,255 / 1,Tulipánová,,50.738529205322266,15.084927558898926,1,,0,25511,,2,,
13722,256 / 1,Vyhlídková,,50.73701858520508,15.082859992980957,1,,0,25611,,2,,
13732,257 / 1,Vyhlídková křižovatka,,50.73419952392578,15.086274147033691,1,,0,25711,,2,,
13742,258 / 1,Sportovní Areál,,50.73939895629883,15.089128494262695,1,,0,25811,,2,,
13752,259 / 1,U Závor,,50.74026870727539,15.094376564025879,1,,0,25911,,2,,
13762,260 / 1,Tyršův Vrch,,50.73685073852539,15.095483779907227,1,,0,26011,,2,,
13772,261 / 1,U Lesa,,50.7365837097168,15.097907066345215,1,,0,26111,,2,,
13782,262 / 1,Pampelišková,,50.73975372314453,15.098520278930664,1,,0,26211,,2,,
13792,263 / 1,U Cukrárny,,50.741031646728516,15.096110343933105,1,,0,26311,,2,,
13812,265 / 1,U Krematoria,,50.76144790649414,15.057890892028809,1,,0,26511,,2,,
13842,309 / 1,Bedřichov,,50.795040130615234,15.142823219299316,1,,0,26811,,2,,
13852,311 / 1,Bedřichov Maliník,,50.7912712097168,15.130751609802246,1,,0,26911,,2,,
13862,311 / 2,Bedřichov Maliník,,50.79118347167969,15.130403518676758,1,,0,26911,,2,,
13872,312 / 1,Bedřichov odb.,,50.79277420043945,15.13352108001709,1,,0,27011,,2,,
13882,312 / 2,Bedřichov odb.,,50.79275894165039,15.133355140686035,1,,0,27011,,2,,
13932,6 / 3,Blanická,,50.7947883605957,15.072320938110352,1,,0,10011,,2,,
14012,105 / 4,Nová Ruda,,50.755916595458984,15.080288887023926,1,,0,23111,,1,,
14052,136 / 2,Rudolfov,,50.78624725341797,15.111878395080566,1,,0,10611,,2,,
14062,136 / 1,Rudolfov,,50.786155700683594,15.111963272094727,1,,0,10611,,2,,
24182,188 / 5,Vratislavice n.N. výhybna,,50.74089050292969,15.102059364318848,1,,0,23611,,1,,
24202,159 / 4,Šaldovo náměstí,,50.76929473876953,15.060412406921387,1,,0,3111,,2,,
37322,252 / 1,Bauhaus,,50.776362662373835,15.023109519563377,1,,0,42211,,1,,
37722,209 / 1,Nemocnice,,50.7704945721244,15.062896181206916,1,,0,42811,,1,,
37732,201 / 1,Klášterní,,50.768917746915676,15.066179487715509,1,,0,42911,,1,,
37752,72 / 5,Vratislavická Kyselka,,50.73491030134695,15.105934242576534,"1, 2",,0,23711,,2,,
37762,72 / 6,Vratislavická Kyselka,,50.734839851105264,15.10620916900056,"1, 2",,0,23711,,2,,
37772,125 / 6,Nový Svět,,50.722474198213405,15.130378140714939,"2, 1",,0,24111,,2,,
37782,125 / 5,Nový Svět,,50.72225005565763,15.130732192304905,"2, 1",,0,24111,,2,,
37792,191 / 5,Zelené Údolí,,50.72120240384118,15.144708084128021,2,,0,24211,,2,,
37802,191 / 6,Zelené Údolí,,50.72139513685168,15.14442511107695,2,,0,24211,,2,,
37812,127 / 5,Proseč n.N. pošta,,50.72810040819317,15.11612311577804,"1, 2",,0,23911,,2,,
37822,127 / 6,Proseč n.N. pošta,,50.728389040395555,15.115927314519952,"1, 2",,0,23911,,2,,
37832,128 / 5,U Šamotky,,50.72435326112126,15.124876259055755,"1, 2",,0,24011,,2,,
37842,128 / 6,U Šamotky,,50.724348167188445,15.124991594043395,"1, 2",,0,24011,,2,,
37912,239 / 1,UCT,,50.73014182480512,15.04738010032279,1,,0,43311,,2,,
37932,148 / 3,Sokolská,,50.7720833,15.0560828,1,,0,13711,,2,,
37992,323 / 1,"Chrastava, aut.nádr.",,50.8164794,14.9652619,,,0,43711,,1,,
38002,323 / 2,"Chrastava, aut. nádr.",,50.8163628,14.9654361,,,0,43711,,1,,
